{"1896": {"Summer": {"edition": 1, "city": "Athina", "long": 23.7283052, "lat": 37.9839412, "n_athletes": "176", "n_countries": "12"}}, "1900": {"Summer": {"edition": 2, "city": "Paris", "long": 2.3514616, "lat": 48.8566969, "n_athletes": "1,224", "n_countries": "31"}}, "1904": {"Summer": {"edition": 3, "city": "St. Louis", "long": -90.24111656024635, "lat": 38.6529545, "n_athletes": "650", "n_countries": "14"}}, "1906": {"Summer": {"edition": 4, "city": "Athina", "long": 23.7283052, "lat": 37.9839412, "n_athletes": "841", "n_countries": "20"}}, "1908": {"Summer": {"edition": 5, "city": "London", "long": -0.1276474, "lat": 51.5073219, "n_athletes": "2,024", "n_countries": "22"}}, "1912": {"Summer": {"edition": 6, "city": "Stockholm", "long": 18.0710935, "lat": 59.3251172, "n_athletes": "2,409", "n_countries": "28"}}, "1920": {"Summer": {"edition": 7, "city": "Antwerpen", "long": 4.3997081, "lat": 51.2211097, "n_athletes": "2,676", "n_countries": "29"}}, "1924": {"Summer": {"edition": 8, "city": "Paris", "long": 2.3514616, "lat": 48.8566969, "n_athletes": "3,256", "n_countries": "45"}, "Winter": {"edition": 1, "city": "Chamonix", "long": 6.8727506, "lat": 45.9246705, "n_athletes": "313", "n_countries": "19"}}, "1928": {"Summer": {"edition": 9, "city": "Amsterdam", "long": 4.8936041, "lat": 52.3727598, "n_athletes": "3,247", "n_countries": "46"}, "Winter": {"edition": 2, "city": "Sankt Moritz", "long": 9.8386578, "lat": 46.4960592, "n_athletes": "461", "n_countries": "25"}}, "1932": {"Summer": {"edition": 10, "city": "Los Angeles", "long": -118.2427666, "lat": 34.0536909, "n_athletes": "1,922", "n_countries": "47"}, "Winter": {"edition": 3, "city": "Lake Placid", "long": -73.979874, "lat": 44.279621, "n_athletes": "252", "n_countries": "17"}}, "1936": {"Summer": {"edition": 11, "city": "Berlin", "long": 13.3888599, "lat": 52.5170365, "n_athletes": "4,484", "n_countries": "49"}, "Winter": {"edition": 4, "city": "Garmisch-Partenkirchen", "long": 11.103992, "lat": 47.4938359, "n_athletes": "668", "n_countries": "28"}}, "1948": {"Summer": {"edition": 12, "city": "London", "long": -0.1276474, "lat": 51.5073219, "n_athletes": "4,402", "n_countries": "58"}, "Winter": {"edition": 5, "city": "Sankt Moritz", "long": 9.8386578, "lat": 46.4960592, "n_athletes": "668", "n_countries": "28"}}, "1952": {"Summer": {"edition": 13, "city": "Helsinki", "long": 24.9425769, "lat": 60.1674098, "n_athletes": "4,932", "n_countries": "66"}, "Winter": {"edition": 6, "city": "Oslo", "long": 10.7389701, "lat": 59.9133301, "n_athletes": "694", "n_countries": "30"}}, "1956": {"Summer": {"edition": 14, "city": "Melbourne", "long": 144.9631608, "lat": -37.8142176, "n_athletes": "3,347", "n_countries": "70"}, "Winter": {"edition": 7, "city": "Cortina d'Ampezzo", "long": 12.1373506, "lat": 46.5383332, "n_athletes": "821", "n_countries": "32"}}, "1960": {"Summer": {"edition": 15, "city": "Roma", "long": 12.4829321, "lat": 41.8933203, "n_athletes": "5,352", "n_countries": "82"}, "Winter": {"edition": 8, "city": "Squaw Valley", "long": -119.20015587604176, "lat": 36.705929499999996, "n_athletes": "665", "n_countries": "30"}}, "1964": {"Summer": {"edition": 16, "city": "Tokyo", "long": 139.7594549, "lat": 35.6828387, "n_athletes": "5,137", "n_countries": "93"}, "Winter": {"edition": 9, "city": "Innsbruck", "long": 11.397137204221064, "lat": 47.26951525, "n_athletes": "1,094", "n_countries": "36"}}, "1968": {"Summer": {"edition": 17, "city": "Mexico City", "long": -99.1331785, "lat": 19.4326296, "n_athletes": "5,558", "n_countries": "110"}, "Winter": {"edition": 10, "city": "Grenoble", "long": 5.7357819, "lat": 45.1875602, "n_athletes": "1,160", "n_countries": "36"}}, "1972": {"Summer": {"edition": 18, "city": "Munich", "long": 11.5753822, "lat": 48.1371079, "n_athletes": "7,114", "n_countries": "119"}, "Winter": {"edition": 11, "city": "Sapporo", "long": 141.3542924, "lat": 43.061936, "n_athletes": "1,008", "n_countries": "34"}}, "1976": {"Summer": {"edition": 19, "city": "Montreal", "long": -73.6103642, "lat": 45.4972159, "n_athletes": "6,073", "n_countries": "90"}, "Winter": {"edition": 12, "city": "Innsbruck", "long": 11.397137204221064, "lat": 47.26951525, "n_athletes": "1,128", "n_countries": "36"}}, "1980": {"Summer": {"edition": 20, "city": "Moskva", "long": 37.3273304, "lat": 55.4792046, "n_athletes": "5,259", "n_countries": "80"}, "Winter": {"edition": 13, "city": "Lake Placid", "long": -73.979874, "lat": 44.279621, "n_athletes": "1,071", "n_countries": "36"}}, "1984": {"Summer": {"edition": 21, "city": "Los Angeles", "long": -118.2427666, "lat": 34.0536909, "n_athletes": "6,798", "n_countries": "138"}, "Winter": {"edition": 14, "city": "Sarajevo", "long": 18.3866868, "lat": 43.8519774, "n_athletes": "1,273", "n_countries": "48"}}, "1988": {"Summer": {"edition": 22, "city": "Seoul", "long": 126.9782914, "lat": 37.5666791, "n_athletes": "8,454", "n_countries": "155"}, "Winter": {"edition": 15, "city": "Calgary", "long": -114.0625892, "lat": 51.0534234, "n_athletes": "1,425", "n_countries": "56"}}, "1992": {"Summer": {"edition": 23, "city": "Barcelona", "long": 2.1774322, "lat": 41.3828939, "n_athletes": "9,386", "n_countries": "167"}, "Winter": {"edition": 16, "city": "Albertville", "long": 6.3925417, "lat": 45.6754622, "n_athletes": "1,801", "n_countries": "64"}}, "1994": {"Winter": {"edition": 17, "city": "Lillehammer", "long": 10.426585544131413, "lat": 61.1333408, "n_athletes": "1,738", "n_countries": "67"}}, "1996": {"Summer": {"edition": 24, "city": "Atlanta", "long": -84.3901849, "lat": 33.7490987, "n_athletes": "10,339", "n_countries": "195"}}, "1998": {"Winter": {"edition": 18, "city": "Nagano", "long": 138.0319015, "lat": 36.1143945, "n_athletes": "2,179", "n_countries": "72"}}, "2000": {"Summer": {"edition": 25, "city": "Sydney", "long": 151.2164539, "lat": -33.8548157, "n_athletes": "10,647", "n_countries": "198"}}, "2002": {"Winter": {"edition": 19, "city": "Salt Lake City", "long": -111.8867975, "lat": 40.7596198, "n_athletes": "2,399", "n_countries": "76"}}, "2004": {"Summer": {"edition": 26, "city": "Athina", "long": 23.7283052, "lat": 37.9839412, "n_athletes": "10,557", "n_countries": "199"}}, "2006": {"Winter": {"edition": 20, "city": "Torino", "long": 7.6824892, "lat": 45.0677551, "n_athletes": "2,494", "n_countries": "78"}}, "2008": {"Summer": {"edition": 27, "city": "Beijing", "long": 116.3912757, "lat": 39.906217, "n_athletes": "10,899", "n_countries": "201"}}, "2010": {"Winter": {"edition": 21, "city": "Vancouver", "long": -123.1139529, "lat": 49.2608724, "n_athletes": "2,536", "n_countries": "81"}}, "2012": {"Summer": {"edition": 28, "city": "London", "long": -0.1276474, "lat": 51.5073219, "n_athletes": "10,517", "n_countries": "202"}}, "2014": {"Winter": {"edition": 22, "city": "Sochi", "long": 39.723109, "lat": 43.5854823, "n_athletes": "2,745", "n_countries": "88"}}, "2016": {"Summer": {"edition": 29, "city": "Rio de Janeiro", "long": -43.2093727, "lat": -22.9110137, "n_athletes": "11,179", "n_countries": "203"}}}