{"1896": {"Summer": {"city": "Athina", "long": 23.7283052, "lat": 37.9839412}}, "1900": {"Summer": {"city": "Paris", "long": 2.3514616, "lat": 48.8566969}}, "1904": {"Summer": {"city": "St. Louis", "long": -90.24111656024635, "lat": 38.6529545}}, "1906": {"Summer": {"city": "Athina", "long": 23.7283052, "lat": 37.9839412}}, "1908": {"Summer": {"city": "London", "long": -0.1276474, "lat": 51.5073219}}, "1912": {"Summer": {"city": "Stockholm", "long": 18.0710935, "lat": 59.3251172}}, "1920": {"Summer": {"city": "Antwerpen", "long": 4.3997081, "lat": 51.2211097}}, "1924": {"Summer": {"city": "Paris", "long": 2.3514616, "lat": 48.8566969}, "Winter": {"city": "Chamonix", "long": 6.8727506, "lat": 45.9246705}}, "1928": {"Summer": {"city": "Amsterdam", "long": 4.8936041, "lat": 52.3727598}, "Winter": {"city": "Sankt Moritz", "long": 9.8386578, "lat": 46.4960592}}, "1932": {"Summer": {"city": "Los Angeles", "long": -118.2427666, "lat": 34.0536909}, "Winter": {"city": "Lake Placid", "long": -73.979874, "lat": 44.279621}}, "1936": {"Summer": {"city": "Berlin", "long": 13.3888599, "lat": 52.5170365}, "Winter": {"city": "Garmisch-Partenkirchen", "long": 11.103992, "lat": 47.4938359}}, "1948": {"Summer": {"city": "London", "long": -0.1276474, "lat": 51.5073219}, "Winter": {"city": "Sankt Moritz", "long": 9.8386578, "lat": 46.4960592}}, "1952": {"Summer": {"city": "Helsinki", "long": 24.9425769, "lat": 60.1674098}, "Winter": {"city": "Oslo", "long": 10.7389701, "lat": 59.9133301}}, "1956": {"Summer": {"city": "Melbourne", "long": 144.9631608, "lat": -37.8142176}, "Winter": {"city": "Cortina d'Ampezzo", "long": 12.1373506, "lat": 46.5383332}}, "1960": {"Summer": {"city": "Roma", "long": 12.4829321, "lat": 41.8933203}, "Winter": {"city": "Squaw Valley", "long": -119.20015587604176, "lat": 36.705929499999996}}, "1964": {"Summer": {"city": "Tokyo", "long": 139.7594549, "lat": 35.6828387}, "Winter": {"city": "Innsbruck", "long": 11.397137204221064, "lat": 47.26951525}}, "1968": {"Summer": {"city": "Mexico City", "long": -99.1331785, "lat": 19.4326296}, "Winter": {"city": "Grenoble", "long": 5.7357819, "lat": 45.1875602}}, "1972": {"Summer": {"city": "Munich", "long": 11.5753822, "lat": 48.1371079}, "Winter": {"city": "Sapporo", "long": 141.3542924, "lat": 43.061936}}, "1976": {"Summer": {"city": "Montreal", "long": -73.6103642, "lat": 45.4972159}, "Winter": {"city": "Innsbruck", "long": 11.397137204221064, "lat": 47.26951525}}, "1980": {"Summer": {"city": "Moskva", "long": 37.3273304, "lat": 55.4792046}, "Winter": {"city": "Lake Placid", "long": -73.979874, "lat": 44.279621}}, "1984": {"Summer": {"city": "Los Angeles", "long": -118.2427666, "lat": 34.0536909}, "Winter": {"city": "Sarajevo", "long": 18.3866868, "lat": 43.8519774}}, "1988": {"Summer": {"city": "Seoul", "long": 126.9782914, "lat": 37.5666791}, "Winter": {"city": "Calgary", "long": -114.0625892, "lat": 51.0534234}}, "1992": {"Summer": {"city": "Barcelona", "long": 2.1774322, "lat": 41.3828939}, "Winter": {"city": "Albertville", "long": 6.3925417, "lat": 45.6754622}}, "1994": {"Winter": {"city": "Lillehammer", "long": 10.426585544131413, "lat": 61.1333408}}, "1996": {"Summer": {"city": "Atlanta", "long": -84.3901849, "lat": 33.7490987}}, "1998": {"Winter": {"city": "Nagano", "long": 138.0319015, "lat": 36.1143945}}, "2000": {"Summer": {"city": "Sydney", "long": 151.2164539, "lat": -33.8548157}}, "2002": {"Winter": {"city": "Salt Lake City", "long": -111.8867975, "lat": 40.7596198}}, "2004": {"Summer": {"city": "Athina", "long": 23.7283052, "lat": 37.9839412}}, "2006": {"Winter": {"city": "Torino", "long": 7.6824892, "lat": 45.0677551}}, "2008": {"Summer": {"city": "Beijing", "long": 116.3912757, "lat": 39.906217}}, "2010": {"Winter": {"city": "Vancouver", "long": -123.1139529, "lat": 49.2608724}}, "2012": {"Summer": {"city": "London", "long": -0.1276474, "lat": 51.5073219}}, "2014": {"Winter": {"city": "Sochi", "long": 39.723109, "lat": 43.5854823}}, "2016": {"Summer": {"city": "Rio de Janeiro", "long": -43.2093727, "lat": -22.9110137}}}